{
    "type": "FeatureCollection",
    "features": [
        {
            "type": "Feature",
            "id": 1,
            "address": "ул. Богородский Вал, д. 6, корп. 1",
            "geometry": {
                "type": "Point",
                "coordinates": [
                    55.802432,
                    37.704547
                ]
            },
            "services": [
                "supportsChargeRub",
                "supportsRub"
            ]
        },
        {
            "type": "Feature",
            "id": 2,
            "address": "ул. Нижняя Красносельская, д. 43",
            "geometry": {
                "type": "Point",
                "coordinates": [
                    55.773763,
                    37.675002
                ]
            },
            "services": [
                "supportsChargeRub",
                "supportsRub"
            ]
        },
        {
            "type": "Feature",
            "id": 3,
            "address": "ул. Авиаконструктора Миля, д. 4, корп. 1",
            "geometry": {
                "type": "Point",
                "coordinates": [
                    55.686137,
                    37.849832
                ]
            },
            "services": [
                "supportsChargeRub",
                "supportsRub"
            ]
        },
        {
            "type": "Feature",
            "id": 4,
            "address": "Кадашевская наб., д. 36, стр. 1",
            "geometry": {
                "type": "Point",
                "coordinates": [
                    55.745726,
                    37.625702
                ]
            },
            "services": [
                "supportsChargeRub",
                "supportsRub"
            ]
        },
        {
            "type": "Feature",
            "id": 5,
            "address": "Новочеркасский б-р, д. 44",
            "geometry": {
                "type": "Point",
                "coordinates": [
                    55.646284,
                    37.737542
                ]
            },
            "services": [
                "supportsChargeRub",
                "supportsRub"
            ]
        },
        {
            "type": "Feature",
            "id": 6,
            "address": "Нагорный б-р, д. 10",
            "geometry": {
                "type": "Point",
                "coordinates": [
                    55.67226,
                    37.595707
                ]
            },
            "services": [
                "supportsChargeRub",
                "supportsRub"
            ]
        },
        {
            "type": "Feature",
            "id": 7,
            "address": "2-я ул. Марьиной Рощи, д. 22",
            "geometry": {
                "type": "Point",
                "coordinates": [
                    55.799955,
                    37.619221
                ]
            },
            "services": [
                "supportsChargeRub",
                "supportsRub"
            ]
        },
        {
            "type": "Feature",
            "id": 8,
            "address": "ул. Героев Панфиловцев, д. 12, корп. 1",
            "geometry": {
                "type": "Point",
                "coordinates": [
                    55.858771,
                    37.429672
                ]
            },
            "services": [
                "supportsChargeRub",
                "supportsRub"
            ]
        },
        {
            "type": "Feature",
            "id": 9,
            "address": "ул. Дубининская, д. 11, стр. 2",
            "geometry": {
                "type": "Point",
                "coordinates": [
                    55.728008,
                    37.63835
                ]
            },
            "services": [
                "supportsChargeRub",
                "supportsRub"
            ]
        },
        {
            "type": "Feature",
            "id": 10,
            "address": "ул. Дубнинская, д. 30, корп. 1",
            "geometry": {
                "type": "Point",
                "coordinates": [
                    55.880677,
                    37.558643
                ]
            },
            "services": [
                "supportsChargeRub",
                "supportsRub"
            ]
        },
        {
            "type": "Feature",
            "id": 11,
            "address": "ул. Кастанаевская, д. 25, корп. 1",
            "geometry": {
                "type": "Point",
                "coordinates": [
                    55.736001,
                    37.483157
                ]
            },
            "services": [
                "supportsChargeRub",
                "supportsRub"
            ]
        },
        {
            "type": "Feature",
            "id": 12,
            "address": "ул. Тарусская, д. 14, корп. 1",
            "geometry": {
                "type": "Point",
                "coordinates": [
                    55.605226,
                    37.530813
                ]
            },
            "services": [
                "supportsRub"
            ]
        },
        {
            "type": "Feature",
            "id": 13,
            "address": "Новодевичий пр-д, д. 10",
            "geometry": {
                "type": "Point",
                "coordinates": [
                    55.729863,
                    37.557511
                ]
            },
            "services": [
                "supportsChargeRub",
                "supportsRub"
            ]
        },
        {
            "type": "Feature",
            "id": 14,
            "address": "ул. Академика Королева, д. 9, корп. 1",
            "geometry": {
                "type": "Point",
                "coordinates": [
                    55.82092,
                    37.62387
                ]
            },
            "services": [
                "supportsChargeRub",
                "supportsRub"
            ]
        },
        {
            "type": "Feature",
            "id": 15,
            "address": "ул. Стадион, д. 2",
            "geometry": {
                "type": "Point",
                "coordinates": [
                    55.816475,
                    37.088141
                ]
            },
            "services": [
                "supportsChargeRub",
                "supportsRub"
            ]
        },
        {
            "type": "Feature",
            "id": 16,
            "address": "ул. Большая Черкизовская, д. 30, корп. 1",
            "geometry": {
                "type": "Point",
                "coordinates": [
                    55.799603,
                    37.740956
                ]
            },
            "services": [
                "supportsChargeRub",
                "supportsRub"
            ]
        },
        {
            "type": "Feature",
            "id": 17,
            "address": "ул. Перовская, д. 33, корп. 1",
            "geometry": {
                "type": "Point",
                "coordinates": [
                    55.747485,
                    37.775856
                ]
            },
            "services": [
                "supportsChargeRub",
                "supportsRub"
            ]
        },
        {
            "type": "Feature",
            "id": 18,
            "address": "Можайское ш., д. 42",
            "geometry": {
                "type": "Point",
                "coordinates": [
                    55.71837,
                    37.411373
                ]
            },
            "services": [
                "supportsChargeRub",
                "supportsRub"
            ]
        },
        {
            "type": "Feature",
            "id": 19,
            "address": "Ленинградский пр-т, д. 56",
            "geometry": {
                "type": "Point",
                "coordinates": [
                    55.79851,
                    37.537955
                ]
            },
            "services": [
                "supportsChargeRub",
                "supportsRub"
            ]
        },
        {
            "type": "Feature",
            "id": 20,
            "address": "ул. Пятницкая, д. 54, стр. 2",
            "geometry": {
                "type": "Point",
                "coordinates": [
                    55.733923,
                    37.627337
                ]
            },
            "services": [
                "supportsChargeRub",
                "supportsRub"
            ]
        },
        {
            "type": "Feature",
            "id": 21,
            "address": "Пятницкое ш., д. 12, корп. 2",
            "geometry": {
                "type": "Point",
                "coordinates": [
                    55.840851,
                    37.386921
                ]
            },
            "services": [
                "supportsChargeRub",
                "supportsRub"
            ]
        },
        {
            "type": "Feature",
            "id": 22,
            "address": "Волжский бул., д. 16, корп. 1",
            "geometry": {
                "type": "Point",
                "coordinates": [
                    55.711938,
                    37.744053
                ]
            },
            "services": [
                "supportsChargeRub",
                "supportsRub"
            ]
        },
        {
            "type": "Feature",
            "id": 23,
            "address": "Тихорецкий бул., д. 2, корп. 1",
            "geometry": {
                "type": "Point",
                "coordinates": [
                    55.679027,
                    37.77643
                ]
            },
            "services": [
                "supportsChargeRub",
                "supportsRub"
            ]
        },
        {
            "type": "Feature",
            "id": 24,
            "address": "ул. Большая Филевская, д. 13",
            "geometry": {
                "type": "Point",
                "coordinates": [
                    55.748523,
                    37.500405
                ]
            },
            "services": [
                "supportsChargeRub",
                "supportsRub"
            ]
        },
        {
            "type": "Feature",
            "id": 25,
            "address": "Мичуринский пр-т, д. 47",
            "geometry": {
                "type": "Point",
                "coordinates": [
                    55.687243,
                    37.481945
                ]
            },
            "services": [
                "supportsChargeRub",
                "supportsRub"
            ]
        },
        {
            "type": "Feature",
            "id": 26,
            "address": "Рублевское ш., д. 16, корп. 1",
            "geometry": {
                "type": "Point",
                "coordinates": [
                    55.740188,
                    37.43437
                ]
            },
            "services": [
                "supportsChargeRub",
                "supportsRub"
            ]
        },
        {
            "type": "Feature",
            "id": 27,
            "address": "пл. Победы, д. 1Б",
            "geometry": {
                "type": "Point",
                "coordinates": [
                    55.735596,
                    37.519539
                ]
            },
            "services": [
                "supportsChargeRub",
                "supportsRub"
            ]
        },
        {
            "type": "Feature",
            "id": 28,
            "address": "ул. Усачева, д. 29, корп. 9",
            "geometry": {
                "type": "Point",
                "coordinates": [
                    55.723374,
                    37.562353
                ]
            },
            "services": [
                "supportsChargeRub",
                "supportsRub"
            ]
        },
        {
            "type": "Feature",
            "id": 29,
            "address": "ул. Лесная, д. 17",
            "geometry": {
                "type": "Point",
                "coordinates": [
                    55.636138,
                    37.209611
                ]
            },
            "services": [
                "supportsChargeRub",
                "supportsRub"
            ]
        },
        {
            "type": "Feature",
            "id": 30,
            "address": "ул. Параллельная, д. 12",
            "geometry": {
                "type": "Point",
                "coordinates": [
                    55.625465,
                    38.065939
                ]
            },
            "services": [
                "supportsChargeRub",
                "supportsRub"
            ]
        },
        {
            "type": "Feature",
            "id": 31,
            "address": "ул. Народная, д. 1/19",
            "geometry": {
                "type": "Point",
                "coordinates": [
                    55.421087,
                    37.539491
                ]
            },
            "services": [
                "supportsChargeRub",
                "supportsRub"
            ]
        },
        {
            "type": "Feature",
            "id": 32,
            "address": "ул. Санникова, д. 13",
            "geometry": {
                "type": "Point",
                "coordinates": [
                    55.862075,
                    37.597998
                ]
            },
            "services": [
                "supportsChargeRub",
                "supportsRub"
            ]
        },
        {
            "type": "Feature",
            "id": 33,
            "address": "Рязанский пр-т, д. 82, корп. 5",
            "geometry": {
                "type": "Point",
                "coordinates": [
                    55.708728,
                    37.825626
                ]
            },
            "services": [
                "supportsChargeRub",
                "supportsRub"
            ]
        },
        {
            "type": "Feature",
            "id": 34,
            "address": "Олимпийский пр-т, д. 23",
            "geometry": {
                "type": "Point",
                "coordinates": [
                    55.925264,
                    37.752832
                ]
            },
            "services": [
                "supportsChargeRub",
                "supportsRub"
            ]
        },
        {
            "type": "Feature",
            "id": 35,
            "address": "ул. Перерва, д. 24, стр. 2",
            "geometry": {
                "type": "Point",
                "coordinates": [
                    55.651547,
                    37.730553
                ]
            },
            "services": [
                "supportsChargeRub",
                "supportsRub"
            ]
        },
        {
            "type": "Feature",
            "id": 36,
            "address": "ул. Маршала Василевского, д. 15",
            "geometry": {
                "type": "Point",
                "coordinates": [
                    55.807602,
                    37.464994
                ]
            },
            "services": [
                "supportsChargeRub",
                "supportsRub"
            ]
        },
        {
            "type": "Feature",
            "id": 37,
            "address": "Комсомольский пр-т, д. 3",
            "geometry": {
                "type": "Point",
                "coordinates": [
                    55.733006,
                    37.593255
                ]
            },
            "services": [
                "supportsChargeRub",
                "supportsRub"
            ]
        },
        {
            "type": "Feature",
            "id": 38,
            "address": "ул. Таллинская, д. 22",
            "geometry": {
                "type": "Point",
                "coordinates": [
                    55.799001,
                    37.40398
                ]
            },
            "services": [
                "supportsChargeRub",
                "supportsRub"
            ]
        },
        {
            "type": "Feature",
            "id": 39,
            "address": "мкр. Планерная, кв-л Спартак, д. 17",
            "geometry": {
                "type": "Point",
                "coordinates": [
                    55.920346,
                    37.37147
                ]
            },
            "services": [
                "supportsChargeRub",
                "supportsRub"
            ]
        },
        {
            "type": "Feature",
            "id": 40,
            "address": "ш. Ленинградское, д. 16А, стр. 1",
            "geometry": {
                "type": "Point",
                "coordinates": [
                    55.821386,
                    37.497746
                ]
            },
            "services": [
                "supportsRub"
            ]
        },
        {
            "type": "Feature",
            "id": 41,
            "address": "Щелковский 2-й пр-д, д. 4",
            "geometry": {
                "type": "Point",
                "coordinates": [
                    55.922656,
                    37.782961
                ]
            },
            "services": [
                "supportsChargeRub",
                "supportsRub"
            ]
        },
        {
            "type": "Feature",
            "id": 42,
            "address": "ул. 2-я Владимирская, д. 3",
            "geometry": {
                "type": "Point",
                "coordinates": [
                    55.762075,
                    37.77935
                ]
            },
            "services": [
                "supportsChargeRub",
                "supportsRub"
            ]
        },
        {
            "type": "Feature",
            "id": 43,
            "address": "ул. Сергия Радонежского, д. 4",
            "geometry": {
                "type": "Point",
                "coordinates": [
                    55.746385,
                    37.672621
                ]
            },
            "services": [
                "supportsChargeRub",
                "supportsRub"
            ]
        },
        {
            "type": "Feature",
            "id": 44,
            "address": "Осенний бул., д. 11",
            "geometry": {
                "type": "Point",
                "coordinates": [
                    55.758732,
                    37.40672
                ]
            },
            "services": [
                "supportsChargeRub",
                "supportsRub"
            ]
        },
        {
            "type": "Feature",
            "id": 45,
            "address": "ул. Фадеева, д. 4А",
            "geometry": {
                "type": "Point",
                "coordinates": [
                    55.793875,
                    37.974608
                ]
            },
            "services": [
                "supportsChargeRub",
                "supportsRub"
            ]
        },
        {
            "type": "Feature",
            "id": 46,
            "address": "ул. Петрозаводская, д. 9, корп. 2",
            "geometry": {
                "type": "Point",
                "coordinates": [
                    55.865066,
                    37.494701
                ]
            },
            "services": [
                "supportsChargeRub",
                "supportsRub"
            ]
        },
        {
            "type": "Feature",
            "id": 47,
            "address": "ул. Большая Очаковская, д. 17",
            "geometry": {
                "type": "Point",
                "coordinates": [
                    55.682138,
                    37.456882
                ]
            },
            "services": [
                "supportsChargeRub",
                "supportsRub"
            ]
        },
        {
            "type": "Feature",
            "id": 48,
            "address": "Варшавское ш., д. 59А, стр. 3",
            "geometry": {
                "type": "Point",
                "coordinates": [
                    55.675067,
                    37.627301
                ]
            },
            "services": [
                "supportsChargeRub",
                "supportsRub"
            ]
        },
        {
            "type": "Feature",
            "id": 49,
            "address": "Богословский пер., д. 8/15, стр. 1",
            "geometry": {
                "type": "Point",
                "coordinates": [
                    55.762454,
                    37.599813
                ]
            },
            "services": [
                "supportsChargeRub",
                "supportsRub"
            ]
        },
        {
            "type": "Feature",
            "id": 50,
            "address": "ул.Новочеремушкинская, д.56, корп.1",
            "geometry": {
                "type": "Point",
                "coordinates": [
                    55.668975,
                    37.564572
                ]
            },
            "services": [
                "supportsChargeRub",
                "supportsRub"
            ]
        },
        {
            "type": "Feature",
            "id": 51,
            "address": "Волоколамское ш., д. 15/22",
            "geometry": {
                "type": "Point",
                "coordinates": [
                    55.808776,
                    37.493228
                ]
            },
            "services": [
                "supportsChargeRub",
                "supportsRub"
            ]
        },
        {
            "type": "Feature",
            "id": 52,
            "address": "ул. 2-я Дубровская, д. 1",
            "geometry": {
                "type": "Point",
                "coordinates": [
                    55.729483,
                    37.6706
                ]
            },
            "services": [
                "supportsChargeRub",
                "supportsRub"
            ]
        },
        {
            "type": "Feature",
            "id": 53,
            "address": "ул. Хабарова, д. 2",
            "geometry": {
                "type": "Point",
                "coordinates": [
                    55.593868,
                    37.351896
                ]
            },
            "services": [
                "supportsChargeRub",
                "supportsRub"
            ]
        },
        {
            "type": "Feature",
            "id": 54,
            "address": "ул. Красноказарменная, д. 9",
            "geometry": {
                "type": "Point",
                "coordinates": [
                    55.758139,
                    37.697729
                ]
            },
            "services": [
                "supportsChargeRub",
                "supportsRub"
            ]
        },
        {
            "type": "Feature",
            "id": 55,
            "address": "ул. Симферопольская, д. 4А",
            "geometry": {
                "type": "Point",
                "coordinates": [
                    55.507713,
                    37.571471
                ]
            },
            "services": [
                "supportsChargeRub",
                "supportsRub"
            ]
        },
        {
            "type": "Feature",
            "id": 56,
            "address": "ул. Комсомольская, д. 4",
            "geometry": {
                "type": "Point",
                "coordinates": [
                    55.666538,
                    37.282088
                ]
            },
            "services": [
                "supportsChargeRub",
                "supportsRub"
            ]
        },
        {
            "type": "Feature",
            "id": 57,
            "address": "ул. Народного Ополчения, д. 45",
            "geometry": {
                "type": "Point",
                "coordinates": [
                    55.792837,
                    37.491512
                ]
            },
            "services": [
                "supportsChargeRub",
                "supportsRub"
            ]
        },
        {
            "type": "Feature",
            "id": 58,
            "address": "Дмитровское ш., д. 13А",
            "geometry": {
                "type": "Point",
                "coordinates": [
                    55.81871,
                    37.573501
                ]
            },
            "services": [
                "supportsChargeRub",
                "supportsRub"
            ]
        },
        {
            "type": "Feature",
            "id": 59,
            "address": "ул. Ясеневая, д. 36",
            "geometry": {
                "type": "Point",
                "coordinates": [
                    55.605449,
                    37.742851
                ]
            },
            "services": [
                "supportsChargeRub",
                "supportsRub"
            ]
        },
        {
            "type": "Feature",
            "id": 60,
            "address": "ул. Катюшки, д. 65А",
            "geometry": {
                "type": "Point",
                "coordinates": [
                    56.003507,
                    37.446785
                ]
            },
            "services": [
                "supportsChargeRub",
                "supportsRub"
            ]
        },
        {
            "type": "Feature",
            "id": 61,
            "address": "ул. Совхозная, д. 39",
            "geometry": {
                "type": "Point",
                "coordinates": [
                    55.673768,
                    37.760422
                ]
            },
            "services": [
                "supportsChargeRub",
                "supportsRub"
            ]
        },
        {
            "type": "Feature",
            "id": 62,
            "address": "Бородинский бул., д. 15",
            "geometry": {
                "type": "Point",
                "coordinates": [
                    55.395333,
                    37.562308
                ]
            },
            "services": [
                "supportsChargeRub",
                "supportsRub"
            ]
        },
        {
            "type": "Feature",
            "id": 63,
            "address": "ул. Барышевская роща, д. 2",
            "geometry": {
                "type": "Point",
                "coordinates": [
                    55.50054,
                    37.541862
                ]
            },
            "services": [
                "supportsChargeRub",
                "supportsRub"
            ]
        },
        {
            "type": "Feature",
            "id": 64,
            "address": "Кавказский бул., д. 35/2, корп. 1",
            "geometry": {
                "type": "Point",
                "coordinates": [
                    55.627407,
                    37.654825
                ]
            },
            "services": [
                "supportsChargeRub",
                "supportsRub"
            ]
        },
        {
            "type": "Feature",
            "id": 65,
            "address": "ул. Чайковского, д. 24",
            "geometry": {
                "type": "Point",
                "coordinates": [
                    55.9767,
                    37.818894
                ]
            },
            "services": [
                "supportsChargeRub",
                "supportsRub"
            ]
        },
        {
            "type": "Feature",
            "id": 66,
            "address": "ул. Первомайская, д. 17",
            "geometry": {
                "type": "Point",
                "coordinates": [
                    55.873577,
                    38.204819
                ]
            },
            "services": [
                "supportsChargeRub",
                "supportsRub"
            ]
        },
        {
            "type": "Feature",
            "id": 67,
            "address": "ул. Калинина, д. 8",
            "geometry": {
                "type": "Point",
                "coordinates": [
                    55.767382,
                    37.857629
                ]
            },
            "services": [
                "supportsChargeRub",
                "supportsRub"
            ]
        },
        {
            "type": "Feature",
            "id": 68,
            "address": "ул. Офицерская, д. 1",
            "geometry": {
                "type": "Point",
                "coordinates": [
                    55.504828,
                    37.338547
                ]
            },
            "services": [
                "supportsChargeRub",
                "supportsRub"
            ]
        },
        {
            "type": "Feature",
            "id": 69,
            "address": "пр-т Мира, д. 124, корп. 4",
            "geometry": {
                "type": "Point",
                "coordinates": [
                    55.816084,
                    37.639582
                ]
            },
            "services": [
                "supportsChargeRub",
                "supportsRub"
            ]
        },
        {
            "type": "Feature",
            "id": 70,
            "address": "ул. Октября, д. 3",
            "geometry": {
                "type": "Point",
                "coordinates": [
                    55.748949,
                    37.850425
                ]
            },
            "services": [
                "supportsChargeRub",
                "supportsRub"
            ]
        },
        {
            "type": "Feature",
            "id": 71,
            "address": "пр-т Волгоградский, д. 88",
            "geometry": {
                "type": "Point",
                "coordinates": [
                    55.704453,
                    37.769235
                ]
            },
            "services": [
                "supportsChargeRub",
                "supportsRub"
            ]
        },
        {
            "type": "Feature",
            "id": 72,
            "address": "ул. Земляной Вал, д. 2",
            "geometry": {
                "type": "Point",
                "coordinates": [
                    55.763153,
                    37.656191
                ]
            },
            "services": [
                "supportsChargeRub",
                "supportsRub"
            ]
        },
        {
            "type": "Feature",
            "id": 73,
            "address": "ул. Бахчиванджи, д. 5",
            "geometry": {
                "type": "Point",
                "coordinates": [
                    55.90965,
                    38.055645
                ]
            },
            "services": [
                "supportsChargeRub",
                "supportsRub"
            ]
        },
        {
            "type": "Feature",
            "id": 74,
            "address": "Зеленый пр-т, д. 66, корп. 1",
            "geometry": {
                "type": "Point",
                "coordinates": [
                    55.75013,
                    37.823242
                ]
            },
            "services": [
                "supportsChargeRub",
                "supportsRub"
            ]
        },
        {
            "type": "Feature",
            "id": 75,
            "address": "ул. Суздальская, д. 16а",
            "geometry": {
                "type": "Point",
                "coordinates": [
                    55.741338,
                    37.848242
                ]
            },
            "services": [
                "supportsChargeRub",
                "supportsRub"
            ]
        },
        {
            "type": "Feature",
            "id": 76,
            "address": "пр-т Вернадского, д. 11/19",
            "geometry": {
                "type": "Point",
                "coordinates": [
                    55.688741,
                    37.528882
                ]
            },
            "services": [
                "supportsChargeRub",
                "supportsRub"
            ]
        },
        {
            "type": "Feature",
            "id": 77,
            "address": "Пролетарский пр-т, д. 20, корп. 1",
            "geometry": {
                "type": "Point",
                "coordinates": [
                    55.633612,
                    37.657377
                ]
            },
            "services": [
                "supportsChargeRub",
                "supportsRub"
            ]
        },
        {
            "type": "Feature",
            "id": 78,
            "address": "ул. Маршала Конева, д. 12",
            "geometry": {
                "type": "Point",
                "coordinates": [
                    55.795929,
                    37.486706
                ]
            },
            "services": [
                "supportsChargeRub",
                "supportsRub"
            ]
        },
        {
            "type": "Feature",
            "id": 79,
            "address": "ул. Олеко Дундича, д. 7, корп. 1",
            "geometry": {
                "type": "Point",
                "coordinates": [
                    55.741353,
                    37.494773
                ]
            },
            "services": [
                "supportsChargeRub",
                "supportsRub"
            ]
        },
        {
            "type": "Feature",
            "id": 80,
            "address": "ул. Кирова, д. 61",
            "geometry": {
                "type": "Point",
                "coordinates": [
                    55.421466,
                    37.518596
                ]
            },
            "services": [
                "supportsChargeRub",
                "supportsRub"
            ]
        },
        {
            "type": "Feature",
            "id": 81,
            "address": "ул. Сергея Макеева, д. 2, стр. 1",
            "geometry": {
                "type": "Point",
                "coordinates": [
                    55.757176,
                    37.550396
                ]
            },
            "services": [
                "supportsChargeRub",
                "supportsRub"
            ]
        },
        {
            "type": "Feature",
            "id": 82,
            "address": "мкр. Центральный, ул. Кирова, д. 3/1",
            "geometry": {
                "type": "Point",
                "coordinates": [
                    55.441678,
                    37.748978
                ]
            },
            "services": [
                "supportsChargeRub",
                "supportsRub"
            ]
        },
        {
            "type": "Feature",
            "id": 83,
            "address": "ул. Стандартная, д. 31",
            "geometry": {
                "type": "Point",
                "coordinates": [
                    55.882086,
                    37.573537
                ]
            },
            "services": [
                "supportsChargeRub",
                "supportsRub"
            ]
        },
        {
            "type": "Feature",
            "id": 84,
            "address": "Коровинское ш., д. 1, корп. 1",
            "geometry": {
                "type": "Point",
                "coordinates": [
                    55.865177,
                    37.543354
                ]
            },
            "services": [
                "supportsChargeRub",
                "supportsRub"
            ]
        },
        {
            "type": "Feature",
            "id": 85,
            "address": "ул. Мосфильмовская, 34",
            "geometry": {
                "type": "Point",
                "coordinates": [
                    55.719759,
                    37.522198
                ]
            },
            "services": [
                "supportsChargeRub",
                "supportsRub"
            ]
        },
        {
            "type": "Feature",
            "id": 86,
            "address": "Мичуринский пр-т,Олимпийская Дер.,3",
            "geometry": {
                "type": "Point",
                "coordinates": [
                    55.676291,
                    37.467248
                ]
            },
            "services": [
                "supportsChargeRub",
                "supportsRub"
            ]
        },
        {
            "type": "Feature",
            "id": 87,
            "address": "ул. Октябрьская, д. 89",
            "geometry": {
                "type": "Point",
                "coordinates": [
                    55.796825,
                    37.612165
                ]
            },
            "services": [
                "supportsChargeRub",
                "supportsRub"
            ]
        },
        {
            "type": "Feature",
            "id": 88,
            "address": "пл. Преображенская, д. 8",
            "geometry": {
                "type": "Point",
                "coordinates": [
                    55.794887,
                    37.712812
                ]
            },
            "services": [
                "supportsChargeRub",
                "supportsRub"
            ]
        },
        {
            "type": "Feature",
            "id": 89,
            "address": "ул. Медиков, д. 20",
            "geometry": {
                "type": "Point",
                "coordinates": [
                    55.632952,
                    37.67864
                ]
            },
            "services": [
                "supportsChargeRub",
                "supportsRub"
            ]
        },
        {
            "type": "Feature",
            "id": 90,
            "address": "корп. 317А, стр. 1",
            "geometry": {
                "type": "Point",
                "coordinates": [
                    55.996983,
                    37.215891
                ]
            },
            "services": [
                "supportsChargeRub",
                "supportsRub"
            ]
        },
        {
            "type": "Feature",
            "id": 91,
            "address": "ул. Братиславская, д. 15, корп.1",
            "geometry": {
                "type": "Point",
                "coordinates": [
                    55.659414,
                    37.759569
                ]
            },
            "services": [
                "supportsChargeRub",
                "supportsRub"
            ]
        },
        {
            "type": "Feature",
            "id": 92,
            "address": "ул. Веневская, д. 3",
            "geometry": {
                "type": "Point",
                "coordinates": [
                    55.548054,
                    37.54551
                ]
            },
            "services": [
                "supportsRub"
            ]
        },
        {
            "type": "Feature",
            "id": 93,
            "address": "ул. Архитектора Власова, д. 39",
            "geometry": {
                "type": "Point",
                "coordinates": [
                    55.66862,
                    37.543973
                ]
            },
            "services": [
                "supportsChargeRub",
                "supportsRub"
            ]
        },
        {
            "type": "Feature",
            "id": 94,
            "address": "ул. Михалевича, д. 18",
            "geometry": {
                "type": "Point",
                "coordinates": [
                    55.565957,
                    38.233619
                ]
            },
            "services": [
                "supportsChargeRub",
                "supportsRub"
            ]
        },
        {
            "type": "Feature",
            "id": 95,
            "address": "ул. Арбат, д. 47/23",
            "geometry": {
                "type": "Point",
                "coordinates": [
                    55.748012,
                    37.587551
                ]
            },
            "services": [
                "supportsChargeRub",
                "supportsRub"
            ]
        },
        {
            "type": "Feature",
            "id": 96,
            "address": "ул. Пречистенка, д. 15",
            "geometry": {
                "type": "Point",
                "coordinates": [
                    55.742225,
                    37.595609
                ]
            },
            "services": [
                "supportsChargeRub",
                "supportsRub"
            ]
        },
        {
            "type": "Feature",
            "id": 97,
            "address": "ул. Мурановская, д. 3",
            "geometry": {
                "type": "Point",
                "coordinates": [
                    55.890542,
                    37.594962
                ]
            },
            "services": [
                "supportsChargeRub",
                "supportsRub"
            ]
        },
        {
            "type": "Feature",
            "id": 98,
            "address": "Кудринская пл., д. 1",
            "geometry": {
                "type": "Point",
                "coordinates": [
                    55.759152,
                    37.58084
                ]
            },
            "services": [
                "supportsChargeRub",
                "supportsRub"
            ]
        },
        {
            "type": "Feature",
            "id": 99,
            "address": "ул. Спиридоновка, д. 27/24",
            "geometry": {
                "type": "Point",
                "coordinates": [
                    55.763067,
                    37.588233
                ]
            },
            "services": [
                "supportsChargeRub",
                "supportsRub"
            ]
        },
        {
            "type": "Feature",
            "id": 100,
            "address": "ул. Новая Басманная, д. 15, стр.1",
            "geometry": {
                "type": "Point",
                "coordinates": [
                    55.769935,
                    37.658661
                ]
            },
            "services": [
                "supportsChargeRub",
                "supportsRub"
            ]
        },
        {
            "type": "Feature",
            "id": 101,
            "address": "ул. Марксистская, д. 9",
            "geometry": {
                "type": "Point",
                "coordinates": [
                    55.734805,
                    37.668156
                ]
            },
            "services": [
                "supportsChargeRub",
                "supportsRub"
            ]
        },
        {
            "type": "Feature",
            "id": 102,
            "address": "ул. Баженова, д. 3",
            "geometry": {
                "type": "Point",
                "coordinates": [
                    55.605012,
                    38.076432
                ]
            },
            "services": [
                "supportsChargeRub",
                "supportsRub"
            ]
        },
        {
            "type": "Feature",
            "id": 103,
            "address": "Лермонтовский пр-т, д. 12",
            "geometry": {
                "type": "Point",
                "coordinates": [
                    55.699152,
                    37.85435
                ]
            },
            "services": [
                "supportsChargeRub",
                "supportsRub"
            ]
        },
        {
            "type": "Feature",
            "id": 104,
            "address": "ул. Совхозная, д. 12",
            "geometry": {
                "type": "Point",
                "coordinates": [
                    55.677311,
                    37.763198
                ]
            },
            "services": [
                "supportsChargeRub",
                "supportsRub"
            ]
        },
        {
            "type": "Feature",
            "id": 105,
            "address": "ул. Автозаводская, д. 5",
            "geometry": {
                "type": "Point",
                "coordinates": [
                    55.708582,
                    37.662264
                ]
            },
            "services": [
                "supportsChargeRub",
                "supportsRub"
            ]
        },
        {
            "type": "Feature",
            "id": 106,
            "address": "ул. Шаболовка, д. 69/32",
            "geometry": {
                "type": "Point",
                "coordinates": [
                    55.71233,
                    37.60717
                ]
            },
            "services": [
                "supportsChargeRub",
                "supportsRub"
            ]
        },
        {
            "type": "Feature",
            "id": 107,
            "address": "Каширское ш., д. 62",
            "geometry": {
                "type": "Point",
                "coordinates": [
                    55.432837,
                    37.765534
                ]
            },
            "services": [
                "supportsChargeRub",
                "supportsRub"
            ]
        },
        {
            "type": "Feature",
            "id": 108,
            "address": "ул. Чапаева, д. 7",
            "geometry": {
                "type": "Point",
                "coordinates": [
                    55.946854,
                    37.29841
                ]
            },
            "services": [
                "supportsChargeRub",
                "supportsRub"
            ]
        },
        {
            "type": "Feature",
            "id": 109,
            "address": "ул. Большая Грузинская, д. 62",
            "geometry": {
                "type": "Point",
                "coordinates": [
                    55.772639,
                    37.585754
                ]
            },
            "services": [
                "supportsChargeRub",
                "supportsRub"
            ]
        },
        {
            "type": "Feature",
            "id": 110,
            "address": "ул. Большая Тульская, д. 2",
            "geometry": {
                "type": "Point",
                "coordinates": [
                    55.709028,
                    37.620761
                ]
            },
            "services": [
                "supportsChargeRub",
                "supportsRub"
            ]
        },
        {
            "type": "Feature",
            "id": 111,
            "address": "Челобитьевское ш., д. 12, корп. 6",
            "geometry": {
                "type": "Point",
                "coordinates": [
                    55.912768,
                    37.547953
                ]
            },
            "services": [
                "supportsChargeRub",
                "supportsRub"
            ]
        },
        {
            "type": "Feature",
            "id": 112,
            "address": "ул. Школьная, д. 21",
            "geometry": {
                "type": "Point",
                "coordinates": [
                    55.556986,
                    37.710081
                ]
            },
            "services": [
                "supportsChargeRub",
                "supportsRub"
            ]
        },
        {
            "type": "Feature",
            "id": 113,
            "address": "пр-т Королева, д. 11",
            "geometry": {
                "type": "Point",
                "coordinates": [
                    55.922424,
                    37.852688
                ]
            },
            "services": [
                "supportsChargeRub",
                "supportsRub"
            ]
        },
        {
            "type": "Feature",
            "id": 114,
            "address": "Октябрьский пр-т, д. 211",
            "geometry": {
                "type": "Point",
                "coordinates": [
                    55.677062,
                    37.90011
                ]
            },
            "services": [
                "supportsChargeRub",
                "supportsRub"
            ]
        },
        {
            "type": "Feature",
            "id": 115,
            "address": "Химкинский бул., д. 1",
            "geometry": {
                "type": "Point",
                "coordinates": [
                    55.850368,
                    37.451097
                ]
            },
            "services": [
                "supportsChargeRub",
                "supportsRub"
            ]
        },
        {
            "type": "Feature",
            "id": 116,
            "address": "пр-т Маршала Жукова, д. 9",
            "geometry": {
                "type": "Point",
                "coordinates": [
                    55.775626,
                    37.497018
                ]
            },
            "services": [
                "supportsChargeRub",
                "supportsRub"
            ]
        },
        {
            "type": "Feature",
            "id": 117,
            "address": "ул. Клары Цеткин, д. 31",
            "geometry": {
                "type": "Point",
                "coordinates": [
                    55.825917,
                    37.513404
                ]
            },
            "services": [
                "supportsChargeRub",
                "supportsRub"
            ]
        },
        {
            "type": "Feature",
            "id": 118,
            "address": "ул. Профсоюзная, д, 152, корп. 1",
            "geometry": {
                "type": "Point",
                "coordinates": [
                    55.622314,
                    37.505894
                ]
            },
            "services": [
                "supportsChargeRub",
                "supportsRub"
            ]
        },
        {
            "type": "Feature",
            "id": 119,
            "address": "ул. Россошанская, д. 7, корп. 1Б",
            "geometry": {
                "type": "Point",
                "coordinates": [
                    55.594545,
                    37.611248
                ]
            },
            "services": [
                "supportsChargeRub",
                "supportsRub"
            ]
        },
        {
            "type": "Feature",
            "id": 120,
            "address": "ул. Сайкина, д. 2",
            "geometry": {
                "type": "Point",
                "coordinates": [
                    55.706639,
                    37.665857
                ]
            },
            "services": [
                "supportsChargeRub",
                "supportsRub"
            ]
        },
        {
            "type": "Feature",
            "id": 121,
            "address": "ул. Большая Серпуховская, д. 40, стр.1",
            "geometry": {
                "type": "Point",
                "coordinates": [
                    55.723268,
                    37.626556
                ]
            },
            "services": [
                "supportsChargeRub",
                "supportsRub"
            ]
        },
        {
            "type": "Feature",
            "id": 122,
            "address": "Юбилейный пр-т, д. 41А",
            "geometry": {
                "type": "Point",
                "coordinates": [
                    55.890487,
                    37.410879
                ]
            },
            "services": [
                "supportsChargeRub",
                "supportsRub"
            ]
        },
        {
            "type": "Feature",
            "id": 123,
            "address": "Волоколамское ш., д. 92, корп. 2",
            "geometry": {
                "type": "Point",
                "coordinates": [
                    55.825259,
                    37.435134
                ]
            },
            "services": [
                "supportsChargeRub",
                "supportsRub"
            ]
        },
        {
            "type": "Feature",
            "id": 124,
            "address": "ул. Библиотечная, д. 2",
            "geometry": {
                "type": "Point",
                "coordinates": [
                    55.892678,
                    37.472917
                ]
            },
            "services": [
                "supportsChargeRub",
                "supportsRub"
            ]
        },
        {
            "type": "Feature",
            "id": 125,
            "address": "Измайловская пл., д. 11",
            "geometry": {
                "type": "Point",
                "coordinates": [
                    55.794381,
                    37.774787
                ]
            },
            "services": [
                "supportsChargeRub",
                "supportsRub"
            ]
        },
        {
            "type": "Feature",
            "id": 126,
            "address": "ул. Адмирала Лазарева, д. 35, корп.1",
            "geometry": {
                "type": "Point",
                "coordinates": [
                    55.542752,
                    37.525836
                ]
            },
            "services": [
                "supportsChargeRub",
                "supportsRub"
            ]
        },
        {
            "type": "Feature",
            "id": 127,
            "address": "ул. Живописная, д. 12, корп. 1",
            "geometry": {
                "type": "Point",
                "coordinates": [
                    55.784435,
                    37.45707
                ]
            },
            "services": [
                "supportsChargeRub",
                "supportsRub"
            ]
        },
        {
            "type": "Feature",
            "id": 128,
            "address": "ул. Внуковская Б., д. 15",
            "geometry": {
                "type": "Point",
                "coordinates": [
                    55.611867,
                    37.294179
                ]
            },
            "services": [
                "supportsChargeRub",
                "supportsRub"
            ]
        },
        {
            "type": "Feature",
            "id": 129,
            "address": "Щелковское ш., д. 10",
            "geometry": {
                "type": "Point",
                "coordinates": [
                    55.804273,
                    37.76221
                ]
            },
            "services": [
                "supportsChargeRub",
                "supportsRub"
            ]
        },
        {
            "type": "Feature",
            "id": 130,
            "address": "ул. Михалковская, д. 2",
            "geometry": {
                "type": "Point",
                "coordinates": [
                    55.837464,
                    37.539239
                ]
            },
            "services": [
                "supportsChargeRub",
                "supportsRub"
            ]
        },
        {
            "type": "Feature",
            "id": 131,
            "address": "ул. Шипиловская, д. 13, корп. 2",
            "geometry": {
                "type": "Point",
                "coordinates": [
                    55.618872,
                    37.706272
                ]
            },
            "services": [
                "supportsChargeRub",
                "supportsRub"
            ]
        },
        {
            "type": "Feature",
            "id": 132,
            "address": "ул. Лобненская, д. 4",
            "geometry": {
                "type": "Point",
                "coordinates": [
                    55.890482,
                    37.539239
                ]
            },
            "services": [
                "supportsChargeRub",
                "supportsRub"
            ]
        },
        {
            "type": "Feature",
            "id": 133,
            "address": "ул. Энергетическая, д. 9, корп. 1",
            "geometry": {
                "type": "Point",
                "coordinates": [
                    55.757668,
                    37.7138
                ]
            },
            "services": [
                "supportsChargeRub",
                "supportsRub"
            ]
        },
        {
            "type": "Feature",
            "id": 134,
            "address": "ул. Вильнюсская, д. 6",
            "geometry": {
                "type": "Point",
                "coordinates": [
                    55.604193,
                    37.521291
                ]
            },
            "services": [
                "supportsChargeRub",
                "supportsRub"
            ]
        },
        {
            "type": "Feature",
            "id": 135,
            "address": "Кутузовский пр-т, д. 2/1, корп. 1Б",
            "geometry": {
                "type": "Point",
                "coordinates": [
                    55.751579,
                    37.564203
                ]
            },
            "services": [
                "supportsChargeRub",
                "supportsRub"
            ]
        },
        {
            "type": "Feature",
            "id": 136,
            "address": "ул. Тайнинская, д. 24",
            "geometry": {
                "type": "Point",
                "coordinates": [
                    55.883959,
                    37.686922
                ]
            },
            "services": [
                "supportsChargeRub",
                "supportsRub"
            ]
        },
        {
            "type": "Feature",
            "id": 137,
            "address": "ул. Шоссейная, д. 35",
            "geometry": {
                "type": "Point",
                "coordinates": [
                    55.67958,
                    37.726233
                ]
            },
            "services": [
                "supportsChargeRub",
                "supportsRub"
            ]
        },
        {
            "type": "Feature",
            "id": 138,
            "address": "Дмитровское ш., д. 103",
            "geometry": {
                "type": "Point",
                "coordinates": [
                    55.876319,
                    37.545608
                ]
            },
            "services": [
                "supportsChargeRub",
                "supportsRub"
            ]
        },
        {
            "type": "Feature",
            "id": 139,
            "address": "Бескудниковский бул., д. 12",
            "geometry": {
                "type": "Point",
                "coordinates": [
                    55.861802,
                    37.562955
                ]
            },
            "services": [
                "supportsChargeRub",
                "supportsRub"
            ]
        },
        {
            "type": "Feature",
            "id": 140,
            "address": "Ленинский пр-т, д. 93",
            "geometry": {
                "type": "Point",
                "coordinates": [
                    55.6750278714,
                    37.5275664484
                ]
            },
            "services": [
                "supportsChargeRub",
                "supportsRub"
            ]
        },
        {
            "type": "Feature",
            "id": 141,
            "address": "Смоленская пл., д. 13/21",
            "geometry": {
                "type": "Point",
                "coordinates": [
                    55.74941,
                    37.582125
                ]
            },
            "services": [
                "supportsChargeRub",
                "supportsRub"
            ]
        },
        {
            "type": "Feature",
            "id": 142,
            "address": "ул. Уральская, д. 1",
            "geometry": {
                "type": "Point",
                "coordinates": [
                    55.811619,
                    37.797819
                ]
            },
            "services": [
                "supportsChargeRub",
                "supportsRub"
            ]
        },
        {
            "type": "Feature",
            "id": 143,
            "address": "ул. Мясницкая, д. 26",
            "geometry": {
                "type": "Point",
                "coordinates": [
                    55.763878,
                    37.637192
                ]
            },
            "services": [
                "supportsChargeRub",
                "supportsRub"
            ]
        },
        {
            "type": "Feature",
            "id": 144,
            "address": "Дмитровское ш., д. 17, корп. 2",
            "geometry": {
                "type": "Point",
                "coordinates": [
                    55.820966,
                    37.572719
                ]
            },
            "services": [
                "supportsChargeRub",
                "supportsRub"
            ]
        },
        {
            "type": "Feature",
            "id": 145,
            "address": "ул. Большая Черкизовская, д.2,корп.2",
            "geometry": {
                "type": "Point",
                "coordinates": [
                    55.79518,
                    37.715866
                ]
            },
            "services": [
                "supportsChargeRub",
                "supportsRub"
            ]
        },
        {
            "type": "Feature",
            "id": 146,
            "address": "ул. Маршала Жукова, д. 32",
            "geometry": {
                "type": "Point",
                "coordinates": [
                    55.67994,
                    37.266349
                ]
            },
            "services": [
                "supportsChargeRub",
                "supportsRub"
            ]
        },
        {
            "type": "Feature",
            "id": 147,
            "address": "Можайское ш., д. 119",
            "geometry": {
                "type": "Point",
                "coordinates": [
                    55.662821,
                    37.185429
                ]
            },
            "services": [
                "supportsChargeRub",
                "supportsRub"
            ]
        },
        {
            "type": "Feature",
            "id": 148,
            "address": "Задонский пр-д, д. 36, корп.2",
            "geometry": {
                "type": "Point",
                "coordinates": [
                    55.620215,
                    37.758033
                ]
            },
            "services": [
                "supportsChargeRub",
                "supportsRub"
            ]
        },
        {
            "type": "Feature",
            "id": 149,
            "address": "пр-т Андропова, д. 38",
            "geometry": {
                "type": "Point",
                "coordinates": [
                    55.674082,
                    37.661608
                ]
            },
            "services": [
                "supportsChargeRub",
                "supportsRub"
            ]
        },
        {
            "type": "Feature",
            "id": 150,
            "address": "ул. Трофимова, д. 15",
            "geometry": {
                "type": "Point",
                "coordinates": [
                    55.703155,
                    37.672792
                ]
            },
            "services": [
                "supportsChargeRub",
                "supportsRub"
            ]
        },
        {
            "type": "Feature",
            "id": 151,
            "address": "ул. 6-я Парковая, д. 13",
            "geometry": {
                "type": "Point",
                "coordinates": [
                    55.790798,
                    37.790058
                ]
            },
            "services": [
                "supportsChargeRub",
                "supportsRub"
            ]
        },
        {
            "type": "Feature",
            "id": 152,
            "address": "ул. Щербаковская, д. 35",
            "geometry": {
                "type": "Point",
                "coordinates": [
                    55.782835,
                    37.729619
                ]
            },
            "services": [
                "supportsRub"
            ]
        },
        {
            "type": "Feature",
            "id": 153,
            "address": "ул. Халтуринская, д. 13",
            "geometry": {
                "type": "Point",
                "coordinates": [
                    55.802199,
                    37.724975
                ]
            },
            "services": [
                "supportsChargeRub",
                "supportsRub"
            ]
        },
        {
            "type": "Feature",
            "id": 154,
            "address": "бул. Маршала Рокоссовского, д. 33/12",
            "geometry": {
                "type": "Point",
                "coordinates": [
                    55.81652,
                    37.714528
                ]
            },
            "services": [
                "supportsChargeRub",
                "supportsRub"
            ]
        },
        {
            "type": "Feature",
            "id": 155,
            "address": "ул. Сокольнический Вал, д.24, корп.3",
            "geometry": {
                "type": "Point",
                "coordinates": [
                    55.790848,
                    37.664662
                ]
            },
            "services": [
                "supportsChargeRub",
                "supportsRub"
            ]
        },
        {
            "type": "Feature",
            "id": 156,
            "address": "ул. Ташкентская, д. 15/22",
            "geometry": {
                "type": "Point",
                "coordinates": [
                    55.703946,
                    37.817861
                ]
            },
            "services": [
                "supportsChargeRub",
                "supportsRub"
            ]
        },
        {
            "type": "Feature",
            "id": 157,
            "address": "Рязанский пр-т, д. 67/2",
            "geometry": {
                "type": "Point",
                "coordinates": [
                    55.719303,
                    37.78589
                ]
            },
            "services": [
                "supportsChargeRub",
                "supportsRub"
            ]
        },
        {
            "type": "Feature",
            "id": 158,
            "address": "ул. Молостовых, д. 1Б",
            "geometry": {
                "type": "Point",
                "coordinates": [
                    55.764688,
                    37.833222
                ]
            },
            "services": [
                "supportsChargeRub",
                "supportsRub"
            ]
        },
        {
            "type": "Feature",
            "id": 159,
            "address": "ул. Салтыковская, д. 27",
            "geometry": {
                "type": "Point",
                "coordinates": [
                    55.739058,
                    37.872676
                ]
            },
            "services": [
                "supportsChargeRub",
                "supportsRub"
            ]
        },
        {
            "type": "Feature",
            "id": 160,
            "address": "квартал 3А, д. 4",
            "geometry": {
                "type": "Point",
                "coordinates": [
                    55.584182,
                    37.91337
                ]
            },
            "services": [
                "supportsChargeRub",
                "supportsRub"
            ]
        },
        {
            "type": "Feature",
            "id": 161,
            "address": "ул. Винницкая, д. 1",
            "geometry": {
                "type": "Point",
                "coordinates": [
                    55.698041,
                    37.49683
                ]
            },
            "services": [
                "supportsChargeRub",
                "supportsRub"
            ]
        },
        {
            "type": "Feature",
            "id": 162,
            "address": "УЛ ФЕСТИВАЛЬНАЯ, Д. 39, КОРП. 1",
            "geometry": {
                "type": "Point",
                "coordinates": [
                    55.857851,
                    37.482358
                ]
            },
            "services": [
                "supportsChargeRub",
                "supportsRub"
            ]
        },
        {
            "type": "Feature",
            "id": 163,
            "address": "Бескудниковский бул., д. 55, корп.1",
            "geometry": {
                "type": "Point",
                "coordinates": [
                    55.872612,
                    37.539958
                ]
            },
            "services": [
                "supportsChargeRub",
                "supportsRub"
            ]
        },
        {
            "type": "Feature",
            "id": 164,
            "address": "ул. Абрамцевская, д. 3",
            "geometry": {
                "type": "Point",
                "coordinates": [
                    55.894879,
                    37.573052
                ]
            },
            "services": [
                "supportsChargeRub",
                "supportsRub"
            ]
        },
        {
            "type": "Feature",
            "id": 165,
            "address": "ул. Бутырская, д. 21",
            "geometry": {
                "type": "Point",
                "coordinates": [
                    55.799107,
                    37.583077
                ]
            },
            "services": [
                "supportsChargeRub",
                "supportsRub"
            ]
        },
        {
            "type": "Feature",
            "id": 166,
            "address": "ул. Руставели, д. 8, корп. 2",
            "geometry": {
                "type": "Point",
                "coordinates": [
                    55.812489,
                    37.591081
                ]
            },
            "services": [
                "supportsChargeRub",
                "supportsRub"
            ]
        },
        {
            "type": "Feature",
            "id": 167,
            "address": "ул. Мира, д. 13/11",
            "geometry": {
                "type": "Point",
                "coordinates": [
                    55.912067,
                    37.732835
                ]
            },
            "services": [
                "supportsChargeRub",
                "supportsRub"
            ]
        },
        {
            "type": "Feature",
            "id": 168,
            "address": "Новомытищинский пр-т, д. 82",
            "geometry": {
                "type": "Point",
                "coordinates": [
                    55.902237,
                    37.722666
                ]
            },
            "services": [
                "supportsChargeRub",
                "supportsRub"
            ]
        },
        {
            "type": "Feature",
            "id": 169,
            "address": "ул. Седова, д. 7, корп. 1",
            "geometry": {
                "type": "Point",
                "coordinates": [
                    55.85148,
                    37.640641
                ]
            },
            "services": [
                "supportsChargeRub",
                "supportsRub"
            ]
        },
        {
            "type": "Feature",
            "id": 170,
            "address": "ул. Лосевская, д. 22",
            "geometry": {
                "type": "Point",
                "coordinates": [
                    55.87747,
                    37.716387
                ]
            },
            "services": [
                "supportsChargeRub",
                "supportsRub"
            ]
        },
        {
            "type": "Feature",
            "id": 171,
            "address": "ул. Калинина, д. 15",
            "geometry": {
                "type": "Point",
                "coordinates": [
                    55.919952,
                    37.815327
                ]
            },
            "services": [
                "supportsChargeRub",
                "supportsRub"
            ]
        },
        {
            "type": "Feature",
            "id": 172,
            "address": "ул. Дзержинская, д. 21",
            "geometry": {
                "type": "Point",
                "coordinates": [
                    55.625277,
                    37.854934
                ]
            },
            "services": [
                "supportsChargeRub",
                "supportsRub"
            ]
        },
        {
            "type": "Feature",
            "id": 173,
            "address": "пл. Преображенская, д. 8",
            "geometry": {
                "type": "Point",
                "coordinates": [
                    55.794887,
                    37.712812
                ]
            },
            "services": [
                "supportsChargeRub",
                "supportsRub"
            ]
        },
        {
            "type": "Feature",
            "id": 174,
            "address": "ул. Большая Воскресенская, д. 1",
            "geometry": {
                "type": "Point",
                "coordinates": [
                    55.81652,
                    37.342661
                ]
            },
            "services": [
                "supportsChargeRub",
                "supportsRub"
            ]
        },
        {
            "type": "Feature",
            "id": 175,
            "address": "ул. Горького, д. 2А",
            "geometry": {
                "type": "Point",
                "coordinates": [
                    55.912799,
                    37.857665
                ]
            },
            "services": [
                "supportsChargeRub",
                "supportsRub"
            ]
        },
        {
            "type": "Feature",
            "id": 176,
            "address": "пр-т Ленина, д. 109/61",
            "geometry": {
                "type": "Point",
                "coordinates": [
                    55.432388,
                    37.547665
                ]
            },
            "services": [
                "supportsChargeRub",
                "supportsRub"
            ]
        },
        {
            "type": "Feature",
            "id": 177,
            "address": "ул. Талсинская, д. 3",
            "geometry": {
                "type": "Point",
                "coordinates": [
                    55.925122,
                    37.993113
                ]
            },
            "services": [
                "supportsChargeRub",
                "supportsRub"
            ]
        },
        {
            "type": "Feature",
            "id": 178,
            "address": "ул. Крылатские Холмы, д. 34",
            "geometry": {
                "type": "Point",
                "coordinates": [
                    55.76484,
                    37.410708
                ]
            },
            "services": [
                "supportsChargeRub",
                "supportsRub"
            ]
        },
        {
            "type": "Feature",
            "id": 179,
            "address": "ул. Кржижановского, д. 5, корп.1",
            "geometry": {
                "type": "Point",
                "coordinates": [
                    55.68263,
                    37.563539
                ]
            },
            "services": [
                "supportsChargeRub",
                "supportsRub"
            ]
        },
        {
            "type": "Feature",
            "id": 180,
            "address": "ул. Дубравная, д. 39",
            "geometry": {
                "type": "Point",
                "coordinates": [
                    55.843611,
                    37.356863
                ]
            },
            "services": [
                "supportsChargeRub",
                "supportsRub"
            ]
        },
        {
            "type": "Feature",
            "id": 181,
            "address": "ул. Свободы, д. 17",
            "geometry": {
                "type": "Point",
                "coordinates": [
                    55.830938,
                    37.450962
                ]
            },
            "services": [
                "supportsChargeRub",
                "supportsRub"
            ]
        },
        {
            "type": "Feature",
            "id": 182,
            "address": "ул. Миклухо-Маклая, д. 55",
            "geometry": {
                "type": "Point",
                "coordinates": [
                    55.641254,
                    37.533077
                ]
            },
            "services": [
                "supportsChargeRub",
                "supportsRub"
            ]
        },
        {
            "type": "Feature",
            "id": 183,
            "address": "ул. Винокурова, д. 28. корп. 1",
            "geometry": {
                "type": "Point",
                "coordinates": [
                    55.684072,
                    37.598187
                ]
            },
            "services": [
                "supportsChargeRub",
                "supportsRub"
            ]
        },
        {
            "type": "Feature",
            "id": 184,
            "address": "Пятницкое ш., д. 43, корп. 2",
            "geometry": {
                "type": "Point",
                "coordinates": [
                    55.856472,
                    37.348554
                ]
            },
            "services": [
                "supportsRub"
            ]
        },
        {
            "type": "Feature",
            "id": 185,
            "address": "Сиреневый бул., д. 65, корп. 1",
            "geometry": {
                "type": "Point",
                "coordinates": [
                    55.803555,
                    37.821553
                ]
            },
            "services": [
                "supportsChargeRub",
                "supportsRub"
            ]
        },
        {
            "type": "Feature",
            "id": 186,
            "address": "ул. Новослободская, д. 49/2",
            "geometry": {
                "type": "Point",
                "coordinates": [
                    55.78651,
                    37.59348
                ]
            },
            "services": [
                "supportsChargeRub",
                "supportsRub"
            ]
        },
        {
            "type": "Feature",
            "id": 187,
            "address": "ул. Полевая, д. 3",
            "geometry": {
                "type": "Point",
                "coordinates": [
                    55.950514,
                    38.055348
                ]
            },
            "services": [
                "supportsChargeRub",
                "supportsRub"
            ]
        },
        {
            "type": "Feature",
            "id": 188,
            "address": "Боровский пр-д, д. 14",
            "geometry": {
                "type": "Point",
                "coordinates": [
                    55.653851,
                    37.38593
                ]
            },
            "services": [
                "supportsChargeRub",
                "supportsRub"
            ]
        },
        {
            "type": "Feature",
            "id": 189,
            "address": "ул. Домодедовская, д.20, корп.3, стр.2",
            "geometry": {
                "type": "Point",
                "coordinates": [
                    55.612772,
                    37.704862
                ]
            },
            "services": [
                "supportsChargeRub",
                "supportsRub"
            ]
        },
        {
            "type": "Feature",
            "id": 190,
            "address": "ул. Лескова, д. 8",
            "geometry": {
                "type": "Point",
                "coordinates": [
                    55.897619,
                    37.596013
                ]
            },
            "services": [
                "supportsChargeRub",
                "supportsRub"
            ]
        },
        {
            "type": "Feature",
            "id": 191,
            "address": "1-й мкр., д. 48",
            "geometry": {
                "type": "Point",
                "coordinates": [
                    55.602988,
                    37.347485
                ]
            },
            "services": [
                "supportsChargeRub",
                "supportsRub"
            ]
        },
        {
            "type": "Feature",
            "id": 192,
            "address": "ул. Воинов-интернационалистов, д. 10",
            "geometry": {
                "type": "Point",
                "coordinates": [
                    55.695383,
                    37.900811
                ]
            },
            "services": [
                "supportsChargeRub",
                "supportsRub"
            ]
        },
        {
            "type": "Feature",
            "id": 193,
            "address": "ул. Маяковского, д. 26/7",
            "geometry": {
                "type": "Point",
                "coordinates": [
                    55.597271,
                    38.121146
                ]
            },
            "services": [
                "supportsChargeRub",
                "supportsRub"
            ]
        },
        {
            "type": "Feature",
            "id": 194,
            "address": "26 Бакинских Комиссаров, д.8, корп.2",
            "geometry": {
                "type": "Point",
                "coordinates": [
                    55.659003,
                    37.491767
                ]
            },
            "services": [
                "supportsChargeRub",
                "supportsRub"
            ]
        },
        {
            "type": "Feature",
            "id": 195,
            "address": "ул. Братиславская, д. 26",
            "geometry": {
                "type": "Point",
                "coordinates": [
                    55.654461,
                    37.763535
                ]
            },
            "services": [
                "supportsChargeRub",
                "supportsRub"
            ]
        },
        {
            "type": "Feature",
            "id": 196,
            "address": "Петровско-Разумовский пр-д,24,корп.4",
            "geometry": {
                "type": "Point",
                "coordinates": [
                    55.8029115542,
                    37.5637328644
                ]
            },
            "services": [
                "supportsChargeRub",
                "supportsRub"
            ]
        },
        {
            "type": "Feature",
            "id": 197,
            "address": "ул. Академика Арцимовича, д. 8",
            "geometry": {
                "type": "Point",
                "coordinates": [
                    55.643546,
                    37.511068
                ]
            },
            "services": [
                "supportsChargeRub",
                "supportsRub"
            ]
        },
        {
            "type": "Feature",
            "id": 198,
            "address": "Щелковское ш., д. 84",
            "geometry": {
                "type": "Point",
                "coordinates": [
                    55.81085,
                    37.818463
                ]
            },
            "services": [
                "supportsChargeRub",
                "supportsRub"
            ]
        },
        {
            "type": "Feature",
            "id": 199,
            "address": "Можайское ш., д. 29",
            "geometry": {
                "type": "Point",
                "coordinates": [
                    55.718958,
                    37.422359
                ]
            },
            "services": [
                "supportsChargeRub",
                "supportsRub"
            ]
        },
        {
            "type": "Feature",
            "id": 200,
            "address": "ул. Клязьминская, д. 19",
            "geometry": {
                "type": "Point",
                "coordinates": [
                    55.892193,
                    37.52916
                ]
            },
            "services": [
                "supportsChargeRub",
                "supportsRub"
            ]
        },
        {
            "type": "Feature",
            "id": 201,
            "address": "ул. Богданова, д. 6",
            "geometry": {
                "type": "Point",
                "coordinates": [
                    55.658659,
                    37.409686
                ]
            },
            "services": [
                "supportsChargeRub",
                "supportsRub"
            ]
        },
        {
            "type": "Feature",
            "id": 202,
            "address": "ул. Ленина, д. 29",
            "geometry": {
                "type": "Point",
                "coordinates": [
                    55.827892,
                    37.310578
                ]
            },
            "services": [
                "supportsChargeRub",
                "supportsRub"
            ]
        },
        {
            "type": "Feature",
            "id": 203,
            "address": "ул. Липовый Парк, д. 8, корп. 2",
            "geometry": {
                "type": "Point",
                "coordinates": [
                    55.569942,
                    37.487622
                ]
            },
            "services": [
                "supportsChargeRub",
                "supportsRub"
            ]
        },
        {
            "type": "Feature",
            "id": 204,
            "address": "корп. 601А",
            "geometry": {
                "type": "Point",
                "coordinates": [
                    55.989225,
                    37.227488
                ]
            },
            "services": [
                "supportsChargeRub",
                "supportsRub"
            ]
        },
        {
            "type": "Feature",
            "id": 205,
            "address": "ул. Дирижабельная, д. 13",
            "geometry": {
                "type": "Point",
                "coordinates": [
                    55.940462,
                    37.508643
                ]
            },
            "services": [
                "supportsChargeRub",
                "supportsRub"
            ]
        },
        {
            "type": "Feature",
            "id": 206,
            "address": "ул. Космонавтов, д. 32",
            "geometry": {
                "type": "Point",
                "coordinates": [
                    55.589344,
                    38.202973
                ]
            },
            "services": [
                "supportsChargeRub",
                "supportsRub"
            ]
        },
        {
            "type": "Feature",
            "id": 207,
            "address": "ул. Чкалова, д. 19",
            "geometry": {
                "type": "Point",
                "coordinates": [
                    55.590902,
                    38.129828
                ]
            },
            "services": [
                "supportsChargeRub",
                "supportsRub"
            ]
        },
        {
            "type": "Feature",
            "id": 208,
            "address": "ул. 1-я Тверская-Ямская, д. 6",
            "geometry": {
                "type": "Point",
                "coordinates": [
                    55.771565,
                    37.593983
                ]
            },
            "services": [
                "supportsChargeRub",
                "supportsRub"
            ]
        },
        {
            "type": "Feature",
            "id": 209,
            "address": "ул. Черняховского, д. 6, стр. 2",
            "geometry": {
                "type": "Point",
                "coordinates": [
                    55.804622,
                    37.53641
                ]
            },
            "services": [
                "supportsChargeRub",
                "supportsRub"
            ]
        },
        {
            "type": "Feature",
            "id": 210,
            "address": "ул. Веерная, д. 3, корп. 1",
            "geometry": {
                "type": "Point",
                "coordinates": [
                    55.708592,
                    37.479456
                ]
            },
            "services": [
                "supportsChargeRub",
                "supportsRub"
            ]
        },
        {
            "type": "Feature",
            "id": 211,
            "address": "бул. Яна Райниса, д. 22, корп. 1",
            "geometry": {
                "type": "Point",
                "coordinates": [
                    55.850555,
                    37.415263
                ]
            },
            "services": [
                "supportsChargeRub",
                "supportsRub"
            ]
        },
        {
            "type": "Feature",
            "id": 212,
            "address": "ул. Генерала Тюленева, д. 41А",
            "geometry": {
                "type": "Point",
                "coordinates": [
                    55.613916,
                    37.494368
                ]
            },
            "services": [
                "supportsChargeRub",
                "supportsRub"
            ]
        },
        {
            "type": "Feature",
            "id": 213,
            "address": "Валдайский пр-д, д. 8, стр. 2",
            "geometry": {
                "type": "Point",
                "coordinates": [
                    55.865728,
                    37.468227
                ]
            },
            "services": [
                "supportsChargeRub",
                "supportsRub"
            ]
        },
        {
            "type": "Feature",
            "id": 214,
            "address": "ул. Шипиловская, д.50. корп.3, стр.1",
            "geometry": {
                "type": "Point",
                "coordinates": [
                    55.619178,
                    37.737174
                ]
            },
            "services": [
                "supportsChargeRub",
                "supportsRub"
            ]
        },
        {
            "type": "Feature",
            "id": 215,
            "address": "Солнцевский пр-т, д. 9",
            "geometry": {
                "type": "Point",
                "coordinates": [
                    55.650693,
                    37.40045
                ]
            },
            "services": [
                "supportsChargeRub",
                "supportsRub"
            ]
        },
        {
            "type": "Feature",
            "id": 216,
            "address": "ул. Кустанайская, д. 10. корп. 3",
            "geometry": {
                "type": "Point",
                "coordinates": [
                    55.617297,
                    37.752445
                ]
            },
            "services": [
                "supportsChargeRub",
                "supportsRub"
            ]
        },
        {
            "type": "Feature",
            "id": 217,
            "address": "ул. Ключевая, д. 6. корп. 3",
            "geometry": {
                "type": "Point",
                "coordinates": [
                    55.6363,
                    37.75576
                ]
            },
            "services": [
                "supportsChargeRub",
                "supportsRub"
            ]
        },
        {
            "type": "Feature",
            "id": 218,
            "address": "ул. Фруктовая, д. 8, корп. 1, стр. 2",
            "geometry": {
                "type": "Point",
                "coordinates": [
                    55.660033,
                    37.616632
                ]
            },
            "services": [
                "supportsChargeRub",
                "supportsRub"
            ]
        },
        {
            "type": "Feature",
            "id": 219,
            "address": "ул. Планерная, д. 12, корп. 1",
            "geometry": {
                "type": "Point",
                "coordinates": [
                    55.862141,
                    37.436634
                ]
            },
            "services": [
                "supportsChargeRub",
                "supportsRub"
            ]
        },
        {
            "type": "Feature",
            "id": 220,
            "address": "Варшавское ш., д. 143",
            "geometry": {
                "type": "Point",
                "coordinates": [
                    55.583561,
                    37.600109
                ]
            },
            "services": [
                "supportsChargeRub",
                "supportsRub"
            ]
        },
        {
            "type": "Feature",
            "id": 221,
            "address": "пр-т Мира, д. 97",
            "geometry": {
                "type": "Point",
                "coordinates": [
                    55.809231,
                    37.636392
                ]
            },
            "services": [
                "supportsChargeRub",
                "supportsRub"
            ]
        },
        {
            "type": "Feature",
            "id": 222,
            "address": "ул. Авангардная, д. 18",
            "geometry": {
                "type": "Point",
                "coordinates": [
                    55.848104,
                    37.48967
                ]
            },
            "services": [
                "supportsChargeRub",
                "supportsRub"
            ]
        },
        {
            "type": "Feature",
            "id": 223,
            "address": "ул. Рабочая, д. 4",
            "geometry": {
                "type": "Point",
                "coordinates": [
                    55.745149,
                    37.681191
                ]
            },
            "services": [
                "supportsChargeRub",
                "supportsRub"
            ]
        },
        {
            "type": "Feature",
            "id": 224,
            "address": "ул. Тимирязевская, д. 25а",
            "geometry": {
                "type": "Point",
                "coordinates": [
                    55.81472,
                    37.564769
                ]
            },
            "services": [
                "supportsChargeRub",
                "supportsRub"
            ]
        },
        {
            "type": "Feature",
            "id": 225,
            "address": "ул. Корнейчука, д. 44",
            "geometry": {
                "type": "Point",
                "coordinates": [
                    55.896887,
                    37.632188
                ]
            },
            "services": [
                "supportsChargeRub",
                "supportsRub"
            ]
        },
        {
            "type": "Feature",
            "id": 226,
            "address": "ул. Башиловская, д. 1, корп. 1",
            "geometry": {
                "type": "Point",
                "coordinates": [
                    55.792873,
                    37.576735
                ]
            },
            "services": [
                "supportsChargeRub",
                "supportsRub"
            ]
        },
        {
            "type": "Feature",
            "id": 227,
            "address": "ул. Уссурийская, д. 11, корп. 1",
            "geometry": {
                "type": "Point",
                "coordinates": [
                    55.824779,
                    37.820628
                ]
            },
            "services": [
                "supportsChargeRub",
                "supportsRub"
            ]
        },
        {
            "type": "Feature",
            "id": 228,
            "address": "ул. Барвихинская, д. 8",
            "geometry": {
                "type": "Point",
                "coordinates": [
                    55.716747,
                    37.387631
                ]
            },
            "services": [
                "supportsChargeRub",
                "supportsRub"
            ]
        },
        {
            "type": "Feature",
            "id": 229,
            "address": "ул. Южная, д. 3",
            "geometry": {
                "type": "Point",
                "coordinates": [
                    55.7497395689,
                    37.953201
                ]
            },
            "services": [
                "supportsChargeRub",
                "supportsRub"
            ]
        },
        {
            "type": "Feature",
            "id": 230,
            "address": "ул. Железнодорожная, д. 24",
            "geometry": {
                "type": "Point",
                "coordinates": [
                    55.813152,
                    37.318406
                ]
            },
            "services": [
                "supportsChargeRub",
                "supportsRub"
            ]
        },
        {
            "type": "Feature",
            "id": 231,
            "address": "мкр. Климовск, ул. Победы, д. 2/18",
            "geometry": {
                "type": "Point",
                "coordinates": [
                    55.359348,
                    37.520599
                ]
            },
            "services": [
                "supportsChargeRub",
                "supportsRub"
            ]
        },
        {
            "type": "Feature",
            "id": 232,
            "address": "ул. Колхозная, д. 7",
            "geometry": {
                "type": "Point",
                "coordinates": [
                    55.745985,
                    38.023773
                ]
            },
            "services": [
                "supportsChargeRub",
                "supportsRub"
            ]
        },
        {
            "type": "Feature",
            "id": 233,
            "address": "ул. Новопесчаная, д. 25/23",
            "geometry": {
                "type": "Point",
                "coordinates": [
                    55.793131,
                    37.507969
                ]
            },
            "services": [
                "supportsChargeRub",
                "supportsRub"
            ]
        },
        {
            "type": "Feature",
            "id": 234,
            "address": "ул. Матвеевская, д. 42, корп. 4",
            "geometry": {
                "type": "Point",
                "coordinates": [
                    55.70701,
                    37.462478
                ]
            },
            "services": [
                "supportsChargeRub",
                "supportsRub"
            ]
        },
        {
            "type": "Feature",
            "id": 235,
            "address": "ул. Бауманская, д. 38, стр. 2",
            "geometry": {
                "type": "Point",
                "coordinates": [
                    55.771206,
                    37.677661
                ]
            },
            "services": [
                "supportsChargeRub",
                "supportsRub"
            ]
        },
        {
            "type": "Feature",
            "id": 236,
            "address": "ул. Артамонова, д. 7, корп. 1",
            "geometry": {
                "type": "Point",
                "coordinates": [
                    55.718704,
                    37.458768
                ]
            },
            "services": [
                "supportsChargeRub",
                "supportsRub"
            ]
        },
        {
            "type": "Feature",
            "id": 237,
            "address": "ул. Новопеределкинская, д. 14А",
            "geometry": {
                "type": "Point",
                "coordinates": [
                    55.6419,
                    37.365334
                ]
            },
            "services": [
                "supportsChargeRub",
                "supportsRub"
            ]
        },
        {
            "type": "Feature",
            "id": 238,
            "address": "бул. Яна Райниса, д. 12",
            "geometry": {
                "type": "Point",
                "coordinates": [
                    55.850469,
                    37.425414
                ]
            },
            "services": [
                "supportsChargeRub",
                "supportsRub"
            ]
        },